{"_id":"0hJNcTYq6fJgnYiGHpqROmeVabCNDjcturShOs1OqBbrMDCR","_openid":"o_Lx75XnyPNr7wUsqlcn0HYiczqk","rank":17,"name":"嘉峪关文物景区","address":"甘肃省嘉峪关市峪泉镇 ","longitude":98.226473,"latitude":39.806466,"open":"8:30-18:00","recommend":"前两年去过，明长城西端第一重关，中国历史上重要的军事要塞，饱经风霜，很有大西北的苍凉之感。如今关城内空空荡荡，当年想必也是充满了无数故事。不过城墙之类的都不太有历史的沧桑感，不知道是不是后来重修过的。"}
{"_id":"2nKhDKhXDuwdlj6Ta7rM6t2qRJ1vxblko4MUcbSBAHjMuUbh","_openid":"o_Lx75XnyPNr7wUsqlcn0HYiczqk","rank":1,"name":"黄山市黄山风景区","address":"安徽省黄山市黄山区205国道","longitude":118.168089,"latitude":30.13039,"open":"6:00-17:30 ","recommend":"“ 黄山归来不看岳，五岳归来不看山”"}
{"_id":"3tDnb1dUycP6Rw4CJ32RLLqkhFCZ8G9tEu5tvbc7VIQBBtrf","_openid":"o_Lx75XnyPNr7wUsqlcn0HYiczqk","rank":23,"name":"金华东阳横店影视城景区","address":"浙江省金华市东阳市横店镇","longitude":120.323376,"latitude":29.143633,"open":"08:30~17:30","recommend":"穿上不同时期的古装多次穿越，过足了戏瘾"}
{"_id":"4nLOVcG3rdTKeba21DyMjMRw0c4S5AYQKqxHUmfDDLhg9a51","_openid":"o_Lx75XnyPNr7wUsqlcn0HYiczqk","rank":37,"name":"西安华清宫景区","address":"陕西省西安市临潼区华清路38号","longitude":109.221619,"latitude":34.364034,"open":"09:00-18:00","recommend":"华清宫气势威仪，园中的景色更是将唐代盛世格局呈现出来"}
{"_id":"5fWCSWvQFtVmvG6LjflWydk7wVAJBUB8XuTmlXhyqJgTytd2","_openid":"o_Lx75XnyPNr7wUsqlcn0HYiczqk","rank":40,"name":"保定安新白洋淀景区","address":"保定市安新县旅游路","longitude":115.956968,"latitude":38.9511,"open":"3月15日-11月15日8:30-17:30;11月16日-次年3月14日景区闭园","recommend":"绿树掩映下的红砖墙，竹林里的古朴书院，另一种安静美"}
{"_id":"9YY8ifS2ox4YBLOVUTP1ptM069NGThw7r68GrDpDKzCOA4cv","_openid":"o_Lx75XnyPNr7wUsqlcn0HYiczqk","rank":6,"name":"武汉黄鹤楼公园","address":"武汉市武昌区蛇山西山坡特1号 ","longitude":114.312194,"latitude":30.549265,"open":"8:30-17:00","recommend":"疫情前光顾的武汉，再登黄鹤楼感受长江东流不复回的画面，爬楼也是够累的，从长江大桥步行至黄鹤楼，院子里转完确实也挺累的，景区厕所是亮点，可视化电视能够看到使用情况和卫生报.告，感叹武汉作为中心城市还是发展快于西安很多的。期待疫情后再次光临武汉，吃热干面，登黄鹤楼"}
{"_id":"AZkoovk5oYzTFLa79VpINqz9H5wmUK0FtWOHIsUu3LvgcslW","_openid":"o_Lx75XnyPNr7wUsqlcn0HYiczqk","rank":31,"name":"鞍山市千山景区","address":"辽宁省鞍山市千山区千山东路79号","longitude":123.123516,"latitude":41.024776,"open":"4月1日-10月31日6:00-18:00","recommend":"人不多，风景也好，秀美奇骏，有点黄山的感觉"}
{"_id":"BA3ut21kpUtp53yIJU5miVHriShWlNxVvjtquMO0a4NKMDWE","_openid":"o_Lx75XnyPNr7wUsqlcn0HYiczqk","rank":42,"name":"拉萨布达拉宫景区","address":"西藏自治区拉萨市城关区北京中路35号","longitude":91.118456,"latitude":29.654468,"open":"09:30-15:00","recommend":"世界上海拔最高、最雄伟的宫殿，是拉萨乃至西藏最重要的象征。"}
{"_id":"CAaeM7Hw6SyxZZ3BVKGO8E9XvVkwE5vaZLh541Pp1l47BQNv","_openid":"o_Lx75XnyPNr7wUsqlcn0HYiczqk","rank":12,"name":"苏州吴中太湖旅游区","address":"江苏省苏州市吴中区旺山路 ","longitude":120.565993,"latitude":31.206742,"open":"8:00-17：30","recommend":"炎炎夏日的午后，乘船登太湖仙岛。享微风拂面，心情极好！"}
{"_id":"D299T2cPC7Fn5aeVE9xXaAZkPakXKdprVmSLa1nm2rQW1oXe","_openid":"o_Lx75XnyPNr7wUsqlcn0HYiczqk","rank":32,"name":"安顺黄果树瀑布景区","address":"贵州省镇宁布依族苗族自治县黄果树镇","longitude":105.679142,"latitude":25.985778,"open":"3月1日-11月30日07:00-19:00；12月1日-次年2月28日08:00-18:00","recommend":"举世闻名的大瀑布，值得花一天时间细细游览"}
{"_id":"DgnmdUErFBTdDkNbUxE4LbEDKBAAOVquaeoGWYprdDlSDi37","_openid":"o_Lx75XnyPNr7wUsqlcn0HYiczqk","rank":7,"name":"杭州淳安千岛湖风景区","address":"浙江省杭州市淳安县梦姑路","longitude":119.032092,"latitude":29.593886,"open":"全天开放","recommend":"阴天去千岛湖很合适，景色别有一番风情，雨后空气也很清新"}
{"_id":"DpZo9FlQlbkqSH7olW5T0VmsgoJZpSFmQrliihMyrQK0XywR","_openid":"o_Lx75XnyPNr7wUsqlcn0HYiczqk","rank":39,"name":"乐山峨嵋山景区","address":"名山南路41号峨眉山(西南门)附近（出入口）","longitude":103.298396,"latitude":29.586092,"open":"1月16日-12月14日 06:00-18:00；12月15日-次年1月15日 07:00-18:00","recommend":"风景很不错，气候也适宜，云雾缭绕，金顶和大佛气势恢宏"}
{"_id":"EWOAxRC1HPHTPJ36mdSBW0VjAazMs7IRWyRb5mfWb1GcDlYm","_openid":"o_Lx75XnyPNr7wUsqlcn0HYiczqk","rank":25,"name":"三亚市蜈支洲岛旅游区","address":"三亚市海棠区林旺镇后海村","longitude":109.77286,"latitude":18.316394,"open":"8:00-17:30","recommend":"蜈支洲真的是三亚必去景点没有之一，海水真的很清澈"}
{"_id":"EyOgDEZUT9uSZc0dMSreqPRJALH2foBXtCA6NhEUVyNawkzn","_openid":"o_Lx75XnyPNr7wUsqlcn0HYiczqk","rank":30,"name":"十堰丹江口市武当山风景区","address":"十堰市丹江口市太和街道永乐路13号","longitude":111.069986,"latitude":32.467103,"open":"08:00-18:00","recommend":"武当山峰众多，还有三十岩等特色看点，来这里香客也很多"}
{"_id":"HN88j9ApwN8cvtxU9RtrKcwwo7sUSuXavIllryDcZcst7kl4","_openid":"o_Lx75XnyPNr7wUsqlcn0HYiczqk","rank":11,"name":"长白山景区","address":"二道白河镇 ","longitude":128.081342,"latitude":42.029465,"open":"8:30-17:00","recommend":"长白山风景区也是人生必去景点之一哈~~自然地理环境优美，感觉很远古时代，山很高很伟岸，让人感觉很雄壮，自己很渺小，对山有种由内心发出的敬畏感~.上山路很蜿蜒曲折，大巴师傅技术那叫一个溜~~11月份山顶积雪很高，差不多有一人高，一山有四季，这就是长白山的魅力"}
{"_id":"HhVbsR2dnVttHhYRmNHa5LrecjZvW2oWRPU9ODdO1gkAD3DS","_openid":"o_Lx75XnyPNr7wUsqlcn0HYiczqk","rank":4,"name":"渭南华阴市华山景区","address":"陕西省渭南市华阴市集灵路中段","longitude":110.073028,"latitude":34.497647,"open":"8:00-15:00","recommend":"西岳果然是名不虚传，华山真的是秀奇险峻，作为道教圣地，跟峨眉山的感觉又不一样了，峨眉山更多的是一种神圣，华山更多的是一种庄重,从西峰可以看到华北平原，还有那棵同样出名的迎客松，样子更加骄傲奇特，日出真的很美啊。"}
{"_id":"L4lWBvTFvYS8OlYNNPvRjCn8YC3PDjO7YpP3BnGimFCBEfRJ","_openid":"o_Lx75XnyPNr7wUsqlcn0HYiczqk","rank":8,"name":"厦门鼓浪屿风景名胜区","address":"厦门市思明区安海路 ","longitude":118.073467,"latitude":24.450968,"open":"全天开放","recommend":"鼓浪屿，去厦门的必去景点，人虽然多，但是风景优美，美食多种多样，跟朋友一起晚上出来溜达的时候，气候温度刚刚好。"}
{"_id":"M9L5v1XTkilvU5j3qAUl9vln8hEkFMu2lxuUhaiYtuUpCr0C","_openid":"o_Lx75XnyPNr7wUsqlcn0HYiczqk","rank":45,"name":"天津蓟县盘山风景名胜区","address":"天津市蓟县官庄镇莲花岭村","longitude":117.279729,"latitude":40.093249,"open":"07:00-17:00","recommend":"盘山景色以“五峰八石”、“三盘之胜”而奇特称绝，东联九华峰，西傍舞剑峰。五峰攒簇，怪石嶙峋，天然形成了“三盘之胜”。"}
{"_id":"NOLWrwtEBWrJ2v7CwmkrB04eSEbLQsT0LyFW2NAq6jiD8LxP","_openid":"o_Lx75XnyPNr7wUsqlcn0HYiczqk","rank":27,"name":"舟山普陀山风景区","address":"舟山市普陀区梅岑路1号","longitude":122.397608,"latitude":30.007976,"open":"8:00-18:00","recommend":"这里寺庙非常多，最有名的还是那座33米高观音大士"}
{"_id":"NXsV2NkitWy1W6F6S3DrPS07CWRzJiCvtaqh2Oj9B2Hskd0w","_openid":"o_Lx75XnyPNr7wUsqlcn0HYiczqk","rank":18,"name":"成都青城山都江堰旅游景区","address":"四川省成都市都江堰市青城山镇青城山路 ","longitude":103.569195,"latitude":30.911742,"open":"8:00-17:00","recommend":"这里的气候非常舒适，一路上开着车听着音乐，穿过斑驳的林荫疏影，叶子绿的发新。空气混合着湿润的味道，水的味道，鱼的味道，还有风的气息...我不知道跨过了多少个桥一路弯弯绕绕随着情绪的节奏，开到了一处浅滩，翻过了些许不高的小石，便是这一处，像是岛屿，波光粼粼,令人喜出望外的。"}
{"_id":"RzOEqDnL1ZDQvqKbUuC0W5nZ14G775ovQ4qrPJjDBVasYqwO","_openid":"o_Lx75XnyPNr7wUsqlcn0HYiczqk","rank":50,"name":"承德避暑山庄景区","address":"河北省承德市双桥区山庄东路6号","longitude":117.947437,"latitude":40.98233,"open":"07：00-18：00","recommend":"曾是中国清朝皇帝的夏宫，也是现存最大的古典皇家园林，《还珠格格》取景地之一。"}
{"_id":"TxCccpHOcSVyiWHkJ30nuGU16QnP60D53sfGu33VKaRtD99O","_openid":"o_Lx75XnyPNr7wUsqlcn0HYiczqk","rank":41,"name":"苏州园林","address":"苏州市姑苏区东北街202号","longitude":120.629226,"latitude":31.324246,"open":"07:30-17:30","recommend":"苏州最大的古典园林代表作品，与北京颐和园、承德避暑山庄、苏州留园一起被誉为中国四大名园。"}
{"_id":"VUcNtPaxm0DGZq3ojcD5MRuyETwLsUzEfdNS8A5FwIgEiO5k","_openid":"o_Lx75XnyPNr7wUsqlcn0HYiczqk","rank":44,"name":"上饶三清山旅游景区","address":"江西省上饶市玉山县三清山管委会外双溪服务区三清山","longitude":118.075915,"latitude":28.907432,"open":"08:30-16:30","recommend":"三清山有“小黄山”之称，以自然山岳风光称绝，以道教人文景观为特色，已开发奇峰48座，怪石52处，景物500余处。"}
{"_id":"W5yQgsri0A8Tt1jBrH6oVcwO0tomY0vGfz4BDP3gZL7ucbmS","_openid":"o_Lx75XnyPNr7wUsqlcn0HYiczqk","rank":15,"name":"九江庐山风景名胜区","address":"江西省九江市庐山市牯岭镇 ","longitude":116.001082,"latitude":29.561544,"open":"全天开放","recommend":"庐山是真的美，以至于我们实验室的师兄开玩笑说这地方真的适合养老。气候宜人，山下面的气温穿个短袖都冒汗。山上面我的天真的是舒服。本来以为山上面肯定也和黄山差不多啥都没有。没想到居然啥都有。就是个繁华的小镇看住的酒店就知道了。。三宝树真的大。锦绣谷，五老峰到处都是景，去的时候还下起了雨，烟雨朦胧别有一番滋味。"}
{"_id":"XHuH4xXzf2ziUMRTRmxsP6KGpIIIXezm51EdZtZltdYx528d","_openid":"o_Lx75XnyPNr7wUsqlcn0HYiczqk","rank":52,"name":"北固山风景区","address":"镇江市京口区东吴路3号（北固山风景区）","longitude":119.463946,"latitude":32.222391,"open":"09:00-16:00","recommend":"横枕大江，石壁嵯峨，有许多有关三国时代吴国传说和遗迹"}
{"_id":"YKiLD8LVcIu8nkpPWefrjcv9aUvqG7cd3lsA8fbbKgd2irJB","_openid":"o_Lx75XnyPNr7wUsqlcn0HYiczqk","rank":3,"name":"杭州西湖风景区","address":"杭州市西湖区龙井路1号 ","longitude":120.12792,"latitude":30.228932,"open":"全天开放","recommend":"最喜欢晚上去西湖走一走，想要未知的疯狂想要声色的张扬想要在最好的时光在最美地方。"}
{"_id":"ZOPQ7v7JGILSpD5aF3il9AGIn0UxHNVnoeUCXaWT9yRiJ4jE","_openid":"o_Lx75XnyPNr7wUsqlcn0HYiczqk","rank":38,"name":"恭王府景区","address":"北京市西城区前海西街17号","longitude":116.392599,"latitude":39.943381,"open":"周二-周日8:30-17:00，全年除法定节假日外周一闭馆","recommend":"府邸建筑庄重肃穆，富丽天然，实为中国园林建筑的典范"}
{"_id":"b06604d45ee74c690016ce5810599e3d","_openid":"oEPgp42hg_-00eqHcZgrZOCpdWjM","address":"上海市浦东新区东陆路705号","city":"上海市","latitude":31.278355,"longitude":121.590164,"name":"浦兴文化公园","rank":53.0}
{"_id":"b960af395ee8413400215a96196be27d","address":"广东省广州市越秀区六榕路87号","latitude":23.128238,"longitude":113.260387,"name":"六榕","rank":57.0,"_openid":"oEPgp49OAbPI6CeN-he1QZcnv70A"}
{"_id":"cLhMYe4pXwiyFQ34gvscQyeJYHaHAo1fWsfrC4NvMV0csmob","_openid":"o_Lx75XnyPNr7wUsqlcn0HYiczqk","rank":46,"name":"贵州省铜仁市梵净山旅游区","address":"贵州省铜仁市江口县杭瑞高速附近太平乡黑湾河梵净山景区","longitude":108.69684,"latitude":27.914366,"open":"08:00-19:00","recommend":"全国著名的弥勒菩萨道场，是中国第五大佛教名山，在佛教史上具有重要的地位。"}
{"_id":"clZ5VQsLd9MC4DNEnfNQ0np9lR587ahyST3AgAmH3pIIF7GO","_openid":"o_Lx75XnyPNr7wUsqlcn0HYiczqk","rank":26,"name":"鹰潭市贵溪龙虎山风景名胜区","address":"鹰潭市贵溪市龙虎山景区排衙石大道","longitude":116.987892,"latitude":28.125406,"open":"7:30-17:10","recommend":"感觉这里的风景非常的优美，山不是太高，非常有特色"}
{"_id":"craS6KM1Rms5wIfuLwm27Sj1dKu5IEdWZsJl6Sb2Qb3D8fL7","_openid":"o_Lx75XnyPNr7wUsqlcn0HYiczqk","rank":2,"name":"泰安泰山景区","address":"山东省泰安市泰山区红门路","longitude":117.150998,"latitude":36.229895,"open":"全天开放","recommend":"打卡泰山!古人说会当凌绝顶! -览众山小!过来山顶人很多!玩了一天看到辛辛苦苦的大叔肩.上扛着水_上山!也是因为你们泰山更五彩缤纷!去登山个人感觉不光能锻炼人的意志!不到最后不放弃一直前进没有后退可言!我们也是一气就登顶了"}
{"_id":"d9c416965ee74c7b0020240e52e241ee","city":"上海市","latitude":31.278355,"longitude":121.590164,"name":"浦兴文化公园","rank":1.0,"_openid":"oEPgp42hg_-00eqHcZgrZOCpdWjM","address":"上海市浦东新区东陆路705号"}
{"_id":"ee99daee5ee74ca000187d0937a6d71e","name":"浦兴文化公园","rank":1.0,"_openid":"oEPgp42hg_-00eqHcZgrZOCpdWjM","address":"上海市浦东新区东陆路705号","city":"上海市","latitude":31.278355,"longitude":121.590164}
{"_id":"etnZJ2RIbe9xo57IuGnc3z0ZCc1H5TMiQOJpxzRNwXhDy5gu","_openid":"o_Lx75XnyPNr7wUsqlcn0HYiczqk","rank":51,"name":"焦山风景区","address":"镇江市京口区东吴路83号（焦山风景区）","longitude":119.493189,"latitude":32.242681,"open":"5月21日-9月30日 09:00-15:30；10月1日-次年5月20日 07:30-17:00","recommend":"雨中游览焦山，真正体会到了烟雨江南，雨后的景色更美丽"}
{"_id":"g7vf6dY2JR8RPFf8nkDWHSVFuBs1dmwty0vXe7YfUSASy3rf","_openid":"o_Lx75XnyPNr7wUsqlcn0HYiczqk","rank":36,"name":"忻州五台山风景名胜区","address":"山西省忻州市五台县台怀镇","longitude":113.595708,"latitude":38.976198,"open":"2020年1月24日暂时停业，详情请以景区公示为准；原开放时间8:00-17:00","recommend":"不愧是云峰胜景，皇家寺庙，金碧辉煌，风景优美"}
{"_id":"hcBKo8xutRNcVvhnkIIDOIma3oUpsHudRuQdPheGJA2b428L","_openid":"o_Lx75XnyPNr7wUsqlcn0HYiczqk","rank":35,"name":"黄山市黟县皖南古村落西递宏村","address":"黄山市黟县西递镇031县道","longitude":118.00355,"latitude":29.910232,"open":"全年全天开放","recommend":"祠堂，老宅，组成优美的宏村建筑，生态与生活完美结合"}
{"_id":"iPYjE3PVKp3pKUGPVLFH5wa3yH9UVBE2r8nNugk8pCPx4bxE","_openid":"o_Lx75XnyPNr7wUsqlcn0HYiczqk","rank":22,"name":"池州青阳县九华山风景区","address":"池州市青阳县九华镇九华街","longitude":117.830511,"latitude":30.484894,"open":"全年全天开放","recommend":"真的好多古迹，一路景色让人难忘，确实是地藏菩萨的宝地"}
{"_id":"kD8QNA09EgbPpUmsumZeqzNM6m1IOF0ux9WxK0URlFkaGUBM","_openid":"o_Lx75XnyPNr7wUsqlcn0HYiczqk","rank":34,"name":"丽江玉龙雪山景区","address":"云南省丽江市玉龙纳西族自治县","longitude":100.210479,"latitude":27.140138,"open":"08:00-17:00","recommend":"高原雪山确实是一大挑战，不过通过登玉龙雪山收获很多！"}
{"_id":"kRhweI3oYJPzxE344g5TRXM4T3FC7ALLB63OGIkyRHTd9teY","_openid":"o_Lx75XnyPNr7wUsqlcn0HYiczqk","rank":13,"name":"青岛崂山旅游风景区","address":"山东省青岛市崂山区 ","longitude":120.625651,"latitude":36.19066,"open":"6:00-19:00","recommend":"来青岛必来崂山一游，风景特别好，建议多带一件衣服，海边晚上没太阳了就开始冷了，现在疫情期间道观还没有开门门]不能进去，只能外面走走，风景是非常好，路也走的挺多的，缆车看当天天气情况安排开不开的，所以建议不要先买好票，进去是最大巴的开了还挺远的。"}
{"_id":"lHH7Ba6thiv1gfzr3mLkG1gaT1LviPfWrbUVlGHKHX41DhbU","_openid":"o_Lx75XnyPNr7wUsqlcn0HYiczqk","rank":43,"name":"江西省南昌市滕王阁旅游区","address":"江西省南昌市东湖区仿古街58号","longitude":115.884165,"latitude":28.677433,"open":"08:00-18:30","recommend":"滕王阁临赣江而立，因王勃的《滕王阁序》而闻名，是“江南三大名楼”之一，也是南昌的地标。"}
{"_id":"n1JgXqFVeUEaAD8IsfuorZnXydtF6nKZguRljVYGZBFTWPI4","_openid":"o_Lx75XnyPNr7wUsqlcn0HYiczqk","rank":9,"name":"广州长隆旅游度假区","address":"广州市番禺区汉溪大道东与长隆地铁大道交汇处北侧 ","longitude":113.331839,"latitude":23.005809,"open":"全天开放","recommend":"长隆欢乐世界里面，感觉最惊险刺激的项目只有三个，第一个是垂直过山车，第二个是超级大摆锤，第三个是自由落体跳楼机。这三个项目都是特别大胆特别年轻特别健康的才敢上，所以排队的人比较少，这个自由落体太高了，所以连人都没有，只有三个大胆的人，哈哈哈"}
{"_id":"nuTxY6qmD4NBu1WbprCcBkG9n2anWWpGa0ygrEvpCI0rBHYh","_openid":"o_Lx75XnyPNr7wUsqlcn0HYiczqk","rank":33,"name":"阿坝藏族羌族自治州九寨沟景区","address":"阿坝藏族羌族自治州九寨沟县漳扎镇","longitude":103.911581,"latitude":33.277594,"open":"08:00-17:00","recommend":"九寨归确实是名不虚传，原始自然风景保护的真的好"}
{"_id":"oI7H5huz5V1bwWLSUq8Hpot6AMS8nguFImu9JGDJbUWgAB81","_openid":"o_Lx75XnyPNr7wUsqlcn0HYiczqk","rank":47,"name":"张家界武陵源一天门山旅游区","address":"湖南省张家界市永定区天门山","longitude":110.43462,"latitude":29.315184,"open":"08:00-18:00","recommend":"武陵源风景名胜区位于中国中部湖南省西北部，由张家界市的张家界森林公园、慈利县的索溪峪自然保护区和桑植县的天子山自然保护区组合而成，总面积约500平方公里。"}
{"_id":"olJplloFUMIJBGaPdwl86WQaALKf3n7lOgoshLRbjrdZrdvb","_openid":"o_Lx75XnyPNr7wUsqlcn0HYiczqk","rank":24,"name":"阿勒泰地区布尔津县喀纳斯景区","address":"新疆维吾尔自治区阿勒泰地区布尔津县232省道","longitude":87.138377,"latitude":48.513535,"open":"5月1日-10月15日 08:30-20:30；10月16日-次年4月30日 09:00-19:30","recommend":"湖水的颜色很梦幻，清早去三湾看晨雾，犹如仙境"}
{"_id":"os7BmD7rbGi1BSgUqilJtNnMN4x4yAE0Wyi7KGRzFTt3JxHf","_openid":"o_Lx75XnyPNr7wUsqlcn0HYiczqk","rank":19,"name":"嘉兴南湖旅游区","address":"嘉兴市南湖区南溪西路1号 ","longitude":120.76508,"latitude":30.757469,"open":"全天开放","recommend":"红色经典旅游必去之地~特别喜欢红色旅游，有幸来这里有一点点事情需要做，于是和好友一起.过来转转，第一天来的晚了，船停了，第二天起了大早，赶来~很不错~工作人员服务特别赞~可惜中午的高铁，所以没有仔细看看，就去赶高铁了，下次还回来的~"}
{"_id":"qRF1pS7UhUgjTzEL8uc9pLyEIwJ4qAZtkS4Sk4zjHxEOevFM","_openid":"o_Lx75XnyPNr7wUsqlcn0HYiczqk","rank":5,"name":"故宫博物院","address":"北京市东城区景山前街4号 ","longitude":116.403414,"latitude":39.924091,"open":"8:00-17:00","recommend":"故宫是北京最标志性的建筑!就像一幅巨大的布景，每个小角落，都曾演绎着-部部的故事。这里故事的主角，并非只有帝王将相，还有着很多平凡的人们，侍卫，宫女，太监，以及曾进出来往宫人。即使他们绝大多数在历史上并没有留下姓名，但是也抹不掉，挥不去他们曾经存在过的印记。"}
{"_id":"r6XMSRY1JzNZJDJePgDYeXSBbkoTScdIDhsZlRPCY2ZvernO","_openid":"o_Lx75XnyPNr7wUsqlcn0HYiczqk","rank":20,"name":"神农架生态旅游区","address":"湖北省神农架林区209国道 ","longitude":110.576738,"latitude":31.357065,"open":"全天开放","recommend":"晨风揉醒花千朵，银雾含香吻村落。翠湖鳞波连天际，偕同霞女织绫罗。梅子黄时日日晴，小溪泛尽却山行。绿阴不减来时路，添得黄鹂四五声。漠路风尘，朝代依时更迭，江山随情移主;丛花烟火，日月驰骋转换，世事随性变迁。愿我们在每一个清浅的日子里，站在天地之间，笑看红尘多痛快;站在风云之间，快乐随着清风来。"}
{"_id":"sC97Ii0m1biRvMXlNUJWGlX7LBwczLKzke0abffEyrdlvJDz","_openid":"o_Lx75XnyPNr7wUsqlcn0HYiczqk","rank":21,"name":"吉安井冈山风景旅游区","address":"吉安市井冈山市茨坪镇","longitude":114.143789,"latitude":26.636167,"open":"2月16日-11月15日（8:00-17:00）;11月16日-次年2月15日（8:00-16:30）","recommend":"天然氧吧，可以看的地方非常多，井冈山的杜娟花美不胜收"}
{"_id":"st8sUuVb6cZr66Iohleaxy38j25qdlqck7Em00tgk7RkfdCC","_openid":"o_Lx75XnyPNr7wUsqlcn0HYiczqk","rank":48,"name":"瑞金市共和国摇篮旅游区","address":"赣州市瑞金市沙洲坝金都大道","longitude":116.01241,"latitude":25.88392,"open":"全天","recommend":"由叶坪、红井、二苏大、中华苏维埃纪念园（南园和北园）、中央苏区军事文化博览园等景区组成。"}
{"_id":"tXa3UBfs4dIG8wiv6CQQ2bDB5jPRKUmwh9APHZrjsXtH0Z0S","_openid":"o_Lx75XnyPNr7wUsqlcn0HYiczqk","rank":49,"name":"西安大雁塔-大唐芙蓉园景区","address":"西安市雁塔区芙蓉西路99号","longitude":108.97436,"latitude":34.212717,"open":"10：00-22：00","recommend":"是中国第一个全方位展示盛唐风貌的大型皇家园林式文化主题公园，国家5A级旅游景区"}
{"_id":"teBQcASeiqPHIOtcZCbRvvOqPntO68eLSfkoQJG7ZwqSIFXk","_openid":"o_Lx75XnyPNr7wUsqlcn0HYiczqk","rank":14,"name":"南平武夷山风景名胜区","address":"南平市武夷山市星村镇","longitude":117.963042,"latitude":27.668108,"open":"8:00-17:00","recommend":"公司团建钟爱爬山，这次去的是武夷山，高铁开通后非常方便，从上海出发三个多小时就到了,可能是下过雨的关系一出站就感觉客气非常潮湿，来的武夷山风景区果然风景非常优美，强烈推荐漂流，一个多小时非常悠闲，每个船夫都是一个段子手。"}
{"_id":"v4dL1sA5DlJIudhdDKaNxSFHeNK8kHRBc5GHy3BNcFggbtc0","_openid":"o_Lx75XnyPNr7wUsqlcn0HYiczqk","rank":16,"name":"颐和园","address":"北京市海淀区新建宫门路19号 ","longitude":116.278749,"latitude":40.004869,"open":"6:30-18:00","recommend":"在这玩的特别好，和家人一起去的北京颐和园,-路分享美景和快乐，家人都是第- -次来北京,也见识到了颐和园很多不一样的美，在里面兜兜转转半天也不觉得累，下次如果有机会。 还会带家人再次过来，相信北京颐和园会越来越美!"}
{"_id":"wJhGJs3uXJmEGqr3NmTKDWOedTORMDSQmXQDijtBCDSVHJoH","_openid":"o_Lx75XnyPNr7wUsqlcn0HYiczqk","rank":29,"name":"镇江三山风景名胜区","address":"江苏省镇江市润州区和平路街道金山路62号（金山风景区）","longitude":119.422035,"latitude":32.219931,"open":"8:30~17:00","recommend":"非常的有特色，漫步其中，心情非常的舒服"}
{"_id":"ysZAJIc0L5LyvijJICaICEebsDWRyFLIh6ed64MGXZCb1Yrg","_openid":"o_Lx75XnyPNr7wUsqlcn0HYiczqk","rank":28,"name":"晋中平遥古城景区","address":"山西省晋中市平遥县康宁路","longitude":112.19022,"latitude":37.209535,"open":"4月1日-10月7日 08:00-18:00；10月8日-次年3月31日 08:00-17:30","recommend":"步入古城，信马由缰，青石斑驳，仿佛瞬间穿越回了古代"}
{"_id":"zIYgmFer0ZpSM6Wz7UC7fkCRQ4cObmJ3A9qsZEfgSt8bgqcd","_openid":"o_Lx75XnyPNr7wUsqlcn0HYiczqk","rank":10,"name":"嘉兴桐乡乌镇古镇","address":"浙江省嘉兴市桐乡市石佛南路18号 ","longitude":120.49039,"latitude":30.756424,"open":"8:00-17:00","recommend":"一直想去乌镇逛一逛，听说那里的景色很美气候宜人，每年都会有乌镇戏剧节，感觉是一个充满历史文化的地方。第-次和朋友单独出游就选择了来到这里，住民宿，品茶道，享受慢生活。那里的气候比较湿润，去的时候也赶，上了下小雨，反而更加有浪漫气息。在工作学习忙碌之余，来到这里逛一逛，放松心情，是一个不错的选择。"}
